$GPRMC,010134.000,A,2943.4065,N,09520.5108,W,0.20,337.08,290316$GPGGA,010135.000,2943.4068,N,09520.5108,W,1,04,1.39,22,
$GPRMC,010135.000,A,2943.4068,N,09520.5108,W,0.02,8.93,290316,,$GPGGA,010136.000,2943.4067,N,09520.5105,W,1,04,1.39,22,
$GPRMC,010136.000,A,2943.4067,N,09520.5105,W,0.09,186.60,290316$GPGGA,010137.000,2943.4062,N,09520.5101,W,1,04,1.39,23,
$GPRMC,010137.000,A,2943.4062,N,09520.5101,W,0.28,165.54,290316$GPGGA,010138.000,2943.4060,N,09520.5098,W,1,04,1.39,24,
$GPRMC,010138.000,A,2943.4060,N,09520.5098,W,0.15,157.43,290316$GPGGA,010139.000,2943.4058,N,09520.5095,W,1,04,1.39,24,
$GPRMC,010139.000,A,2943.4058,N,09520.5095,W,0.40,171.49,290316$GPGGA,010140.000,2943.4058,N,09520.5092,W,1,04,1.39,25,
$GPRMC,010140.000,A,2943.4058,N,09520.5092,W,0.29,116.06,290316$GPGGA,010141.000,2943.4060,N,09520.5094,W,1,04,1.39,26,
$GPRMC,010141.000,A,2943.4060,N,09520.5094,W,0.60,254.80,290316$GPGGA,010142.000,2943.4060,N,09520.5098,W,1,04,1.39,27,
$GPRMC,010142.000,A,2943.4060,N,09520.5098,W,1.05,265.31,290316$GPGGA,010143.000,2943.4062,N,09520.5104,W,1,04,1.39,26,
$GPRMC,010143.000,A,2943.4062,N,09520.5104,W,1.37,264.29,290316$GPGGA,010144.000,2943.4063,N,09520.5111,W,1,04,1.39,26,
$GPRMC,010144.000,A,2943.4063,N,09520.5111,W,1.76,250.08,290316$GPGGA,010145.000,2943.4065,N,09520.5120,W,1,04,1.39,25,
$GPRMC,010145.000,A,2943.4065,N,09520.5120,W,2.21,260.75,290316$GPGGA,010146.000,2943.4064,N,09520.5129,W,1,04,1.39,25,
$GPRMC,010146.000,A,2943.4064,N,09520.5129,W,2.28,246.23,290316$GPGGA,010147.000,2943.4062,N,09520.5137,W,1,04,1.39,25,
$GPRMC,010147.000,A,2943.4062,N,09520.5137,W,2.28,243.86,290316$GPGGA,010148.000,2943.4061,N,09520.5145,W,1,04,1.39,25,
$GPRMC,010148.000,A,2943.4061,N,09520.5145,W,2.25,242.79,290316$GPGGA,010149.000,2943.4059,N,09520.5153,W,1,04,1.39,25,
$GPRMC,010149.000,A,2943.4059,N,09520.5153,W,2.37,251.96,290316$GPGGA,010150.000,2943.4066,N,09520.5162,W,1,06,1.28,18,
$GPRMC,010150.000,A,2943.4066,N,09520.5162,W,2.27,250.29,290316$GPGGA,010151.000,2943.4066,N,09520.5170,W,1,06,1.28,16,
$GPRMC,010151.000,A,2943.4066,N,09520.5170,W,2.17,248.27,290316$GPGGA,010152.000,2943.4065,N,09520.5176,W,1,06,1.28,14,
$GPRMC,010152.000,A,2943.4065,N,09520.5176,W,1.61,250.56,290316$GPGGA,010153.000,2943.4065,N,09520.5181,W,1,06,1.28,13,
$GPRMC,010153.000,A,2943.4065,N,09520.5181,W,1.51,254.90,290316$GPGGA,010154.000,2943.4063,N,09520.5187,W,1,06,1.28,13,
$GPRMC,010154.000,A,2943.4063,N,09520.5187,W,2.06,240.30,290316$GPGGA,010155.000,2943.4061,N,09520.5193,W,1,06,1.28,12,
$GPRMC,010155.000,A,2943.4061,N,09520.5193,W,2.10,219.44,290316$GPGGA,010156.000,2943.4056,N,09520.5198,W,1,07,1.16,12,
$GPRMC,010156.000,A,2943.4056,N,09520.5198,W,2.04,217.46,290316$GPGGA,010157.000,2943.4051,N,09520.5202,W,1,07,1.16,11,
$GPRMC,010157.000,A,2943.4051,N,09520.5202,W,2.19,200.97,290316$GPGGA,010158.000,2943.4045,N,09520.5206,W,2,07,1.16,11,
$GPRMC,010158.000,A,2943.4045,N,09520.5206,W,2.15,205.47,290316$GPGGA,010159.000,2943.4040,N,09520.5209,W,2,07,1.16,11,
$GPRMC,010159.000,A,2943.4040,N,09520.5209,W,2.12,206.13,290316$GPGGA,010200.000,2943.4034,N,09520.5212,W,2,07,1.16,10,
$GPRMC,010200.000,A,2943.4034,N,09520.5212,W,2.07,200.07,290316$GPGGA,010201.000,2943.4028,N,09520.5214,W,2,07,1.16,11,
$GPRMC,010201.000,A,2943.4028,N,09520.5214,W,2.11,194.57,290316$GPGGA,010202.000,2943.4022,N,09520.5215,W,2,07,1.16,11,
$GPRMC,010202.000,A,2943.4022,N,09520.5215,W,2.02,195.60,290316$GPGGA,010203.000,2943.4017,N,09520.5218,W,2,07,1.16,10,
$GPRMC,010203.000,A,2943.4017,N,09520.5218,W,1.88,202.55,290316$GPGGA,010204.000,2943.4012,N,09520.5220,W,2,07,1.16,10,
$GPRMC,010204.000,A,2943.4012,N,09520.5220,W,1.91,198.74,290316$GPGGA,010205.000,2943.4007,N,09520.5222,W,2,07,1.16,10,
$GPRMC,010205.000,A,2943.4007,N,09520.5222,W,1.78,196.38,290316$GPGGA,010206.000,2943.4003,N,09520.5223,W,2,07,1.16,10,
$GPRMC,010206.000,A,2943.4003,N,09520.5223,W,1.81,194.60,290316$GPGGA,010207.000,2943.3998,N,09520.5225,W,2,07,1.16,10,
$GPRMC,010207.000,A,2943.3998,N,09520.5225,W,2.01,200.42,290316$GPGGA,010208.000,2943.3993,N,09520.5228,W,2,07,1.16,10,
$GPRMC,010208.000,A,2943.3993,N,09520.5228,W,1.94,206.06,290316$GPGGA,010209.000,2943.3988,N,09520.5231,W,2,07,1.16,10,
$GPRMC,010209.000,A,2943.3988,N,09520.5231,W,2.10,203.21,290316$GPGGA,010210.000,2943.3983,N,09520.5234,W,2,07,1.16,10,
$GPRMC,010210.000,A,2943.3983,N,09520.5234,W,2.17,207.03,290316$GPGGA,010211.000,2943.3978,N,09520.5237,W,2,07,1.16,10,
$GPRMC,010211.000,A,2943.3978,N,09520.5237,W,2.15,203.29,290316$GPGGA,010212.000,2943.3973,N,09520.5240,W,2,07,1.16,11,
$GPRMC,010212.000,A,2943.3973,N,09520.5240,W,2.07,200.57,290316$GPGGA,010213.000,2943.3968,N,09520.5242,W,2,07,1.16,11,
$GPRMC,010213.000,A,2943.3968,N,09520.5242,W,2.05,205.31,290316$GPGGA,010214.000,2943.3963,N,09520.5245,W,2,07,1.16,11,
$GPRMC,010214.000,A,2943.3963,N,09520.5245,W,2.07,203.34,290316$GPGGA,010215.000,2943.3958,N,09520.5247,W,2,07,1.16,11,
$GPRMC,010215.000,A,2943.3958,N,09520.5247,W,1.93,197.25,290316$GPGGA,010216.000,2943.3953,N,09520.5249,W,2,07,1.16,11,
$GPRMC,010216.000,A,2943.3953,N,09520.5249,W,2.01,194.30,290316$GPGGA,010217.000,2943.3948,N,09520.5251,W,2,07,1.16,11,
$GPRMC,010217.000,A,2943.3948,N,09520.5251,W,1.92,195.05,290316$GPGGA,010218.000,2943.3943,N,09520.5252,W,2,07,1.16,11,
$GPRMC,010218.000,A,2943.3943,N,09520.5252,W,1.84,204.45,290316$GPGGA,010219.000,2943.3937,N,09520.5254,W,2,07,1.16,11,
$GPRMC,010219.000,A,2943.3937,N,09520.5254,W,2.47,182.22,290316$GPGGA,010220.000,2943.3932,N,09520.5255,W,2,07,1.16,11,
$GPRMC,010220.000,A,2943.3932,N,09520.5255,W,1.58,192.30,290316$GPGGA,010221.000,2943.3928,N,09520.5256,W,2,07,1.16,11,
$GPRMC,010221.000,A,2943.3928,N,09520.5256,W,1.63,197.87,290316$GPGGA,010222.000,2943.3923,N,09520.5259,W,2,07,1.16,11,
$GPRMC,010222.000,A,2943.3923,N,09520.5259,W,2.00,200.69,290316$GPGGA,010223.000,2943.3917,N,09520.5260,W,2,07,1.16,11,
$GPRMC,010223.000,A,2943.3917,N,09520.5260,W,2.18,188.30,290316$GPGGA,010224.000,2943.3911,N,09520.5262,W,2,07,1.16,11,
$GPRMC,010224.000,A,2943.3911,N,09520.5262,W,1.88,199.87,290316$GPGGA,010225.000,2943.3905,N,09520.5264,W,2,07,1.16,11,
$GPRMC,010225.000,A,2943.3905,N,09520.5264,W,1.99,197.90,290316$GPGGA,010226.000,2943.3900,N,09520.5266,W,2,07,1.16,10,
$GPRMC,010226.000,A,2943.3900,N,09520.5266,W,1.99,199.39,290316$GPGGA,010227.000,2943.3896,N,09520.5269,W,2,07,1.16,10,
$GPRMC,010227.000,A,2943.3896,N,09520.5269,W,1.46,194.10,290316$GPGGA,010228.000,2943.3892,N,09520.5270,W,2,07,1.16,10,
$GPRMC,010228.000,A,2943.3892,N,09520.5270,W,1.65,195.66,290316$GPGGA,010229.000,2943.3888,N,09520.5271,W,2,07,1.16,10,
$GPRMC,010229.000,A,2943.3888,N,09520.5271,W,1.43,192.07,290316$GPGGA,010230.000,2943.3883,N,09520.5273,W,2,07,1.16,10,
$GPRMC,010230.000,A,2943.3883,N,09520.5273,W,1.52,194.68,290316$GPGGA,010231.000,2943.3879,N,09520.5274,W,2,07,1.16,9.,
$GPRMC,010231.000,A,2943.3879,N,09520.5274,W,1.61,196.77,290316$GPGGA,010232.000,2943.3874,N,09520.5276,W,2,07,1.16,9.,
$GPRMC,010232.000,A,2943.3874,N,09520.5276,W,1.64,193.44,290316$GPGGA,010233.000,2943.3869,N,09520.5278,W,2,07,1.16,9.,
$GPRMC,010233.000,A,2943.3869,N,09520.5278,W,1.86,199.28,290316$GPGGA,010234.000,2943.3864,N,09520.5280,W,2,07,1.16,9.,
$GPRMC,010234.000,A,2943.3864,N,09520.5280,W,1.99,197.73,290316$GPGGA,010235.000,2943.3859,N,09520.5283,W,2,07,1.16,9.,
$GPRMC,010235.000,A,2943.3859,N,09520.5283,W,1.94,200.93,290316$GPGGA,010236.000,2943.3853,N,09520.5286,W,2,07,1.16,9.,
$GPRMC,010236.000,A,2943.3853,N,09520.5286,W,1.96,197.70,290316$GPGGA,010237.000,2943.3848,N,09520.5287,W,2,07,1.16,9.,
$GPRMC,010237.000,A,2943.3848,N,09520.5287,W,1.91,185.55,290316$GPGGA,010238.000,2943.3842,N,09520.5288,W,2,07,1.16,9.,
$GPRMC,010238.000,A,2943.3842,N,09520.5288,W,2.39,193.49,290316$GPGGA,010239.000,2943.3836,N,09520.5291,W,2,07,1.16,9.,
$GPRMC,010239.000,A,2943.3836,N,09520.5291,W,1.94,200.40,290316$GPGGA,010240.000,2943.3830,N,09520.5293,W,2,07,1.16,9.,
$GPRMC,010240.000,A,2943.3830,N,09520.5293,W,2.15,195.27,290316$GPGGA,010241.000,2943.3824,N,09520.5296,W,2,07,1.16,8.,
$GPRMC,010241.000,A,2943.3824,N,09520.5296,W,2.25,203.90,290316$GPGGA,010242.000,2943.3818,N,09520.5299,W,2,07,1.16,8.,
$GPRMC,010242.000,A,2943.3818,N,09520.5299,W,2.24,202.25,290316$GPGGA,010243.000,2943.3812,N,09520.5301,W,2,07,1.16,8.,
$GPRMC,010243.000,A,2943.3812,N,09520.5301,W,2.15,199.04,290316$GPGGA,010244.000,2943.3806,N,09520.5304,W,2,07,1.16,8.,
$GPRMC,010244.000,A,2943.3806,N,09520.5304,W,2.27,199.93,290316$GPGGA,010245.000,2943.3800,N,09520.5306,W,2,07,1.16,8.,
$GPRMC,010245.000,A,2943.3800,N,09520.5306,W,2.06,199.58,290316$GPGGA,010246.000,2943.3797,N,09520.5309,W,2,07,1.16,8.,
$GPRMC,010246.000,A,2943.3797,N,09520.5309,W,1.73,233.63,290316$GPGGA,010247.000,2943.3795,N,09520.5315,W,2,07,1.16,8.,
$GPRMC,010247.000,A,2943.3795,N,09520.5315,W,2.13,261.26,290316$GPGGA,010248.000,2943.3794,N,09520.5321,W,2,07,1.16,8.,
$GPRMC,010248.000,A,2943.3794,N,09520.5321,W,1.99,256.78,290316$GPGGA,010249.000,2943.3793,N,09520.5327,W,2,07,1.16,8.,
$GPRMC,010249.000,A,2943.3793,N,09520.5327,W,1.72,250.20,290316$GPGGA,010250.000,2943.3791,N,09520.5331,W,2,07,1.16,8.,
$GPRMC,010250.000,A,2943.3791,N,09520.5331,W,1.21,250.27,290316$GPGGA,010251.000,2943.3790,N,09520.5336,W,2,07,1.16,8.,
$GPRMC,010251.000,A,2943.3790,N,09520.5336,W,1.31,263.36,290316$GPGGA,010252.000,2943.3792,N,09520.5340,W,2,07,1.16,8.,
$GPRMC,010252.000,A,2943.3792,N,09520.5340,W,1.16,278.50,290316$GPGGA,010253.000,2943.3792,N,09520.5344,W,2,07,1.16,9.,
$GPRMC,010253.000,A,2943.3792,N,09520.5344,W,1.15,287.55,290316$GPGGA,010254.000,2943.3792,N,09520.5349,W,2,07,1.16,9.,
$GPRMC,010254.000,A,2943.3792,N,09520.5349,W,1.24,274.59,290316$GPGGA,010255.000,2943.3792,N,09520.5355,W,2,07,1.16,9.,
$GPRMC,010255.000,A,2943.3792,N,09520.5355,W,1.41,272.01,290316$GPGGA,010256.000,2943.3788,N,09520.5359,W,2,07,1.16,9.,
$GPRMC,010256.000,A,2943.3788,N,09520.5359,W,1.28,241.98,290316$GPGGA,010257.000,2943.3786,N,09520.5364,W,2,07,1.16,9.,
$GPRMC,010257.000,A,2943.3786,N,09520.5364,W,1.53,237.20,290316$GPGGA,010258.000,2943.3782,N,09520.5369,W,2,07,1.16,9.,
$GPRMC,010258.000,A,2943.3782,N,09520.5369,W,1.58,228.17,290316$GPGGA,010259.000,2943.3778,N,09520.5373,W,2,07,1.16,9.,
$GPRMC,010259.000,A,2943.3778,N,09520.5373,W,1.67,222.23,290316$GPGGA,010300.000,2943.3773,N,09520.5376,W,2,07,1.16,9.,
$GPRMC,010300.000,A,2943.3773,N,09520.5376,W,1.60,209.20,290316$GPGGA,010301.000,2943.3767,N,09520.5379,W,2,07,1.16,9.,
$GPRMC,010301.000,A,2943.3767,N,09520.5379,W,1.84,195.27,290316$GPGGA,010302.000,2943.3762,N,09520.5381,W,2,07,1.16,9.,
$GPRMC,010302.000,A,2943.3762,N,09520.5381,W,2.18,184.95,290316$GPGGA,010303.000,2943.3756,N,09520.5383,W,2,07,1.16,9.,
$GPRMC,010303.000,A,2943.3756,N,09520.5383,W,2.03,184.94,290316$GPGGA,010304.000,2943.3750,N,09520.5384,W,2,07,1.16,9.,
$GPRMC,010304.000,A,2943.3750,N,09520.5384,W,1.84,183.83,290316$GPGGA,010305.000,2943.3744,N,09520.5385,W,2,07,1.16,9.,
$GPRMC,010305.000,A,2943.3744,N,09520.5385,W,1.82,178.71,290316$GPGGA,010306.000,2943.3739,N,09520.5386,W,2,07,1.16,9.,
$GPRMC,010306.000,A,2943.3739,N,09520.5386,W,1.85,190.84,290316$GPGGA,010307.000,2943.3734,N,09520.5388,W,2,07,1.16,9.,
$GPRMC,010307.000,A,2943.3734,N,09520.5388,W,1.86,190.69,290316$GPGGA,010308.000,2943.3728,N,09520.5390,W,2,07,1.16,9.,
$GPRMC,010308.000,A,2943.3728,N,09520.5390,W,1.69,181.22,290316$GPGGA,010309.000,2943.3723,N,09520.5391,W,2,07,1.16,9.,
$GPRMC,010309.000,A,2943.3723,N,09520.5391,W,1.52,179.99,290316$GPGGA,010310.000,2943.3717,N,09520.5392,W,2,07,1.16,9.,
$GPRMC,010310.000,A,2943.3717,N,09520.5392,W,1.91,190.22,290316$GPGGA,010311.000,2943.3711,N,09520.5394,W,2,07,1.16,9.,
$GPRMC,010311.000,A,2943.3711,N,09520.5394,W,2.30,195.57,290316$GPGGA,010312.000,2943.3705,N,09520.5396,W,2,07,1.16,9.,
$GPRMC,010312.000,A,2943.3705,N,09520.5396,W,1.83,196.23,290316$GPGGA,010313.000,2943.3700,N,09520.5399,W,2,07,1.16,9.,
$GPRMC,010313.000,A,2943.3700,N,09520.5399,W,2.01,202.88,290316$GPGGA,010314.000,2943.3694,N,09520.5401,W,2,07,1.16,9.,
$GPRMC,010314.000,A,2943.3694,N,09520.5401,W,2.27,201.55,290316$GPGGA,010315.000,2943.3687,N,09520.5403,W,2,07,1.16,9.,
$GPRMC,010315.000,A,2943.3687,N,09520.5403,W,2.41,198.16,290316$GPGGA,010316.000,2943.3681,N,09520.5407,W,2,07,1.16,9.,
$GPRMC,010316.000,A,2943.3681,N,09520.5407,W,2.29,211.77,290316$GPGGA,010317.000,2943.3676,N,09520.5409,W,2,07,1.16,10,
$GPRMC,010317.000,A,2943.3676,N,09520.5409,W,1.91,192.38,290316$GPGGA,010318.000,2943.3671,N,09520.5410,W,2,07,1.16,10,
$GPRMC,010318.000,A,2943.3671,N,09520.5410,W,1.98,176.04,290316$GPGGA,010319.000,2943.3665,N,09520.5410,W,2,07,1.16,10,
$GPRMC,010319.000,A,2943.3665,N,09520.5410,W,2.18,194.11,290316$GPGGA,010320.000,2943.3660,N,09520.5412,W,2,08,1.03,10,
$GPRMC,010320.000,A,2943.3660,N,09520.5412,W,2.11,189.85,290316$GPGGA,010321.000,2943.3654,N,09520.5413,W,2,08,1.03,10,
$GPRMC,010321.000,A,2943.3654,N,09520.5413,W,2.47,186.27,290316$GPGGA,010322.000,2943.3649,N,09520.5413,W,2,08,1.03,10,
$GPRMC,010322.000,A,2943.3649,N,09520.5413,W,1.95,190.92,290316$GPGGA,010323.000,2943.3645,N,09520.5415,W,2,08,1.03,11,
$GPRMC,010323.000,A,2943.3645,N,09520.5415,W,2.48,203.65,290316$GPGGA,010324.000,2943.3640,N,09520.5416,W,2,08,1.03,11,
$GPRMC,010324.000,A,2943.3640,N,09520.5416,W,1.77,194.56,290316$GPGGA,010325.000,2943.3636,N,09520.5418,W,2,08,1.03,11,
$GPRMC,010325.000,A,2943.3636,N,09520.5418,W,1.95,193.21,290316$GPGGA,010326.000,2943.3632,N,09520.5420,W,2,08,1.03,11,
$GPRMC,010326.000,A,2943.3632,N,09520.5420,W,1.83,194.64,290316$GPGGA,010327.000,2943.3627,N,09520.5422,W,2,08,1.03,11,
$GPRMC,010327.000,A,2943.3627,N,09520.5422,W,2.00,202.94,290316$GPGGA,010328.000,2943.3621,N,09520.5424,W,2,08,1.03,11,
$GPRMC,010328.000,A,2943.3621,N,09520.5424,W,2.11,198.52,290316$GPGGA,010329.000,2943.3616,N,09520.5426,W,2,08,1.03,11,
$GPRMC,010329.000,A,2943.3616,N,09520.5426,W,1.95,194.41,290316$GPGGA,010330.000,2943.3611,N,09520.5427,W,2,08,1.03,11,
$GPRMC,010330.000,A,2943.3611,N,09520.5427,W,1.65,192.74,290316$GPGGA,010331.000,2943.3605,N,09520.5429,W,2,08,1.03,11,
$GPRMC,010331.000,A,2943.3605,N,09520.5429,W,2.01,193.77,290316$GPGGA,010332.000,2943.3600,N,09520.5430,W,2,08,1.03,11,
$GPRMC,010332.000,A,2943.3600,N,09520.5430,W,1.79,188.66,290316$GPGGA,010333.000,2943.3594,N,09520.5433,W,2,08,1.03,11,
$GPRMC,010333.000,A,2943.3594,N,09520.5433,W,1.85,197.31,290316$GPGGA,010334.000,2943.3589,N,09520.5435,W,2,08,1.03,11,
$GPRMC,010334.000,A,2943.3589,N,09520.5435,W,1.76,199.46,290316$GPGGA,010335.000,2943.3584,N,09520.5438,W,2,08,1.03,11,
$GPRMC,010335.000,A,2943.3584,N,09520.5438,W,1.75,200.54,290316$GPGGA,010336.000,2943.3579,N,09520.5440,W,2,08,1.03,11,
$GPRMC,010336.000,A,2943.3579,N,09520.5440,W,1.74,197.02,290316$GPGGA,010337.000,2943.3574,N,09520.5442,W,2,08,1.03,11,
$GPRMC,010337.000,A,2943.3574,N,09520.5442,W,1.61,198.74,290316$GPGGA,010338.000,2943.3568,N,09520.5443,W,2,08,1.03,11,
$GPRMC,010338.000,A,2943.3568,N,09520.5443,W,2.18,180.86,290316$GPGGA,010339.000,2943.3562,N,09520.5443,W,2,08,1.03,11,
$GPRMC,010339.000,A,2943.3562,N,09520.5443,W,1.85,180.99,290316$GPGGA,010340.000,2943.3555,N,09520.5445,W,2,08,1.03,11,
$GPRMC,010340.000,A,2943.3555,N,09520.5445,W,2.03,190.95,290316$GPGGA,010341.000,2943.3549,N,09520.5446,W,2,08,1.03,11,
$GPRMC,010341.000,A,2943.3549,N,09520.5446,W,1.79,188.75,290316$GPGGA,010342.000,2943.3544,N,09520.5446,W,2,08,1.03,11,
$GPRMC,010342.000,A,2943.3544,N,09520.5446,W,1.37,174.99,290316$GPGGA,010343.000,2943.3539,N,09520.5446,W,2,08,1.03,11,
$GPRMC,010343.000,A,2943.3539,N,09520.5446,W,1.85,170.04,290316$GPGGA,010344.000,2943.3534,N,09520.5444,W,2,08,1.03,11,
$GPRMC,010344.000,A,2943.3534,N,09520.5444,W,1.75,169.36,290316$GPGGA,010345.000,2943.3529,N,09520.5443,W,2,08,1.03,11,
$GPRMC,010345.000,A,2943.3529,N,09520.5443,W,1.62,161.91,290316$GPGGA,010346.000,2943.3525,N,09520.5442,W,2,08,1.03,11,
$GPRMC,010346.000,A,2943.3525,N,09520.5442,W,1.77,179.82,290316$GPGGA,010347.000,2943.3520,N,09520.5443,W,2,08,1.03,11,
$GPRMC,010347.000,A,2943.3520,N,09520.5443,W,1.57,184.18,290316$GPGGA,010348.000,2943.3514,N,09520.5443,W,2,08,1.03,11,
$GPRMC,010348.000,A,2943.3514,N,09520.5443,W,1.82,185.10,290316$GPGGA,010349.000,2943.3509,N,09520.5444,W,2,08,1.03,11,
$GPRMC,010349.000,A,2943.3509,N,09520.5444,W,1.94,186.16,290316$GPGGA,010350.000,2943.3502,N,09520.5445,W,2,08,1.03,11,
$GPRMC,010350.000,A,2943.3502,N,09520.5445,W,1.99,183.59,290316$GPGGA,010351.000,2943.3497,N,09520.5445,W,2,08,1.03,11,
$GPRMC,010351.000,A,2943.3497,N,09520.5445,W,1.82,171.58,290316$GPGGA,010352.000,2943.3490,N,09520.5445,W,2,08,1.03,11,
$GPRMC,010352.000,A,2943.3490,N,09520.5445,W,2.16,170.05,290316$GPGGA,010353.000,2943.3484,N,09520.5444,W,2,08,1.03,11,
$GPRMC,010353.000,A,2943.3484,N,09520.5444,W,2.03,179.80,290316$GPGGA,010354.000,2943.3477,N,09520.5445,W,2,08,1.03,11,
$GPRMC,010354.000,A,2943.3477,N,09520.5445,W,1.95,178.57,290316$GPGGA,010355.000,2943.3472,N,09520.5445,W,2,08,1.03,11,
$GPRMC,010355.000,A,2943.3472,N,09520.5445,W,2.06,179.06,290316$GPGGA,010356.000,2943.3466,N,09520.5446,W,2,08,1.03,11,
$GPRMC,010356.000,A,2943.3466,N,09520.5446,W,2.07,188.48,290316$GPGGA,010357.000,2943.3460,N,09520.5447,W,2,08,1.03,11,
$GPRMC,010357.000,A,2943.3460,N,09520.5447,W,2.06,190.41,290316$GPGGA,010358.000,2943.3454,N,09520.5448,W,2,08,1.03,11,
$GPRMC,010358.000,A,2943.3454,N,09520.5448,W,2.27,181.97,290316$GPGGA,010359.000,2943.3448,N,09520.5448,W,2,08,1.03,11,
$GPRMC,010359.000,A,2943.3448,N,09520.5448,W,2.40,175.10,290316$GPGGA,010400.000,2943.3441,N,09520.5446,W,2,08,1.03,11,
$GPRMC,010400.000,A,2943.3441,N,09520.5446,W,2.27,159.04,290316$GPGGA,010401.000,2943.3435,N,09520.5442,W,2,08,1.03,11,
$GPRMC,010401.000,A,2943.3435,N,09520.5442,W,3.02,152.17,290316$GPGGA,010402.000,2943.3428,N,09520.5438,W,2,09,0.93,11,
$GPRMC,010402.000,A,2943.3428,N,09520.5438,W,2.53,164.33,290316$GPGGA,010403.000,2943.3421,N,09520.5436,W,2,09,0.93,11,
$GPRMC,010403.000,A,2943.3421,N,09520.5436,W,2.18,166.54,290316$GPGGA,010404.000,2943.3414,N,09520.5434,W,2,09,0.93,10,
$GPRMC,010404.000,A,2943.3414,N,09520.5434,W,2.43,162.61,290316$GPGGA,010405.000,2943.3408,N,09520.5432,W,2,09,0.93,10,
$GPRMC,010405.000,A,2943.3408,N,09520.5432,W,2.47,173.35,290316$GPGGA,010406.000,2943.3401,N,09520.5431,W,2,09,0.93,10,
$GPRMC,010406.000,A,2943.3401,N,09520.5431,W,2.27,168.18,290316$GPGGA,010407.000,2943.3395,N,09520.5429,W,2,09,0.93,11,
$GPRMC,010407.000,A,2943.3395,N,09520.5429,W,2.11,161.75,290316$GPGGA,010408.000,2943.3388,N,09520.5428,W,2,09,0.93,11,
$GPRMC,010408.000,A,2943.3388,N,09520.5428,W,2.48,174.52,290316$GPGGA,010409.000,2943.3381,N,09520.5427,W,2,09,0.93,11,
$GPRMC,010409.000,A,2943.3381,N,09520.5427,W,2.18,175.94,290316$GPGGA,010410.000,2943.3375,N,09520.5427,W,2,09,0.93,11,
$GPRMC,010410.000,A,2943.3375,N,09520.5427,W,2.07,178.01,290316$GPGGA,010411.000,2943.3369,N,09520.5427,W,2,09,0.93,11,
$GPRMC,010411.000,A,2943.3369,N,09520.5427,W,2.01,185.89,290316$GPGGA,010412.000,2943.3364,N,09520.5428,W,2,09,0.93,11,
$GPRMC,010412.000,A,2943.3364,N,09520.5428,W,2.00,187.99,290316$GPGGA,010413.000,2943.3358,N,09520.5428,W,2,09,0.93,11,
$GPRMC,010413.000,A,2943.3358,N,09520.5428,W,2.05,188.61,290316$GPGGA,010414.000,2943.3352,N,09520.5429,W,2,09,0.93,11,
$GPRMC,010414.000,A,2943.3352,N,09520.5429,W,2.04,180.71,290316$GPGGA,010415.000,2943.3347,N,09520.5427,W,2,09,0.93,11,
$GPRMC,010415.000,A,2943.3347,N,09520.5427,W,2.11,157.33,290316$GPGGA,010416.000,2943.3342,N,09520.5423,W,2,09,0.93,11,
$GPRMC,010416.000,A,2943.3342,N,09520.5423,W,2.25,136.18,290316$GPGGA,010417.000,2943.3338,N,09520.5418,W,2,09,0.93,10,
$GPRMC,010417.000,A,2943.3338,N,09520.5418,W,2.21,123.54,290316$GPGGA,010418.000,2943.3335,N,09520.5413,W,2,09,0.93,10,
$GPRMC,010418.000,A,2943.3335,N,09520.5413,W,1.77,134.71,290316$GPGGA,010419.000,2943.3331,N,09520.5409,W,2,09,0.93,10,
$GPRMC,010419.000,A,2943.3331,N,09520.5409,W,1.82,157.62,290316$GPGGA,010420.000,2943.3325,N,09520.5408,W,2,09,0.93,10,
$GPRMC,010420.000,A,2943.3325,N,09520.5408,W,2.03,178.80,290316$GPGGA,010421.000,2943.3319,N,09520.5408,W,2,09,0.93,10,
$GPRMC,010421.000,A,2943.3319,N,09520.5408,W,2.34,193.48,290316$GPGGA,010422.000,2943.3313,N,09520.5409,W,2,09,0.93,10,
$GPRMC,010422.000,A,2943.3313,N,09520.5409,W,1.98,194.34,290316$GPGGA,010423.000,2943.3307,N,09520.5411,W,2,09,0.93,11,
$GPRMC,010423.000,A,2943.3307,N,09520.5411,W,2.04,196.65,290316$GPGGA,010424.000,2943.3302,N,09520.5412,W,2,09,0.93,11,
$GPRMC,010424.000,A,2943.3302,N,09520.5412,W,2.17,197.36,290316$GPGGA,010425.000,2943.3296,N,09520.5415,W,2,09,0.93,11,
$GPRMC,010425.000,A,2943.3296,N,09520.5415,W,2.08,202.29,290316$GPGGA,010426.000,2943.3291,N,09520.5418,W,2,09,0.93,11,
$GPRMC,010426.000,A,2943.3291,N,09520.5418,W,2.10,200.32,290316$GPGGA,010427.000,2943.3285,N,09520.5420,W,2,09,0.93,11,
$GPRMC,010427.000,A,2943.3285,N,09520.5420,W,2.07,202.27,290316$GPGGA,010428.000,2943.3280,N,09520.5423,W,2,09,0.93,10,
$GPRMC,010428.000,A,2943.3280,N,09520.5423,W,2.07,200.91,290316$GPGGA,010429.000,2943.3274,N,09520.5425,W,2,09,0.93,10,
$GPRMC,010429.000,A,2943.3274,N,09520.5425,W,2.29,196.44,290316$GPGGA,010430.000,2943.3268,N,09520.5427,W,2,09,0.93,10,
$GPRMC,010430.000,A,2943.3268,N,09520.5427,W,2.38,192.36,290316$GPGGA,010431.000,2943.3262,N,09520.5429,W,2,09,0.93,10,
$GPRMC,010431.000,A,2943.3262,N,09520.5429,W,2.22,195.04,290316$GPGGA,010432.000,2943.3255,N,09520.5431,W,2,09,0.93,10,
$GPRMC,010432.000,A,2943.3255,N,09520.5431,W,2.16,195.90,290316$GPGGA,010433.000,2943.3249,N,09520.5434,W,2,09,0.93,10,
$GPRMC,010433.000,A,2943.3249,N,09520.5434,W,2.24,203.05,290316$GPGGA,010434.000,2943.3243,N,09520.5437,W,2,09,0.93,10,
$GPRMC,010434.000,A,2943.3243,N,09520.5437,W,2.21,204.98,290316$GPGGA,010435.000,2943.3237,N,09520.5440,W,2,09,0.93,11,
$GPRMC,010435.000,A,2943.3237,N,09520.5440,W,2.21,201.97,290316$GPGGA,010436.000,2943.3231,N,09520.5444,W,2,09,0.93,11,
$GPRMC,010436.000,A,2943.3231,N,09520.5444,W,2.16,205.46,290316$GPGGA,010437.000,2943.3225,N,09520.5446,W,2,09,0.93,11,
$GPRMC,010437.000,A,2943.3225,N,09520.5446,W,1.92,203.89,290316$GPGGA,010438.000,2943.3221,N,09520.5448,W,2,09,0.93,11,
$GPRMC,010438.000,A,2943.3221,N,09520.5448,W,1.54,193.80,290316$GPGGA,010439.000,2943.3218,N,09520.5449,W,2,09,0.93,11,
$GPRMC,010439.000,A,2943.3218,N,09520.5449,W,0.54,195.59,290316$GPGGA,010440.000,2943.3217,N,09520.5449,W,2,09,0.93,11,
$GPRMC,010440.000,A,2943.3217,N,09520.5449,W,0.13,200.71,290316$GPGGA,010441.000,2943.3218,N,09520.5449,W,2,09,0.93,11,
$GPRMC,010441.000,A,2943.3218,N,09520.5449,W,0.06,217.78,290316$GPGGA,010442.000,2943.3218,N,09520.5449,W,2,09,0.93,11,
$GPRMC,010442.000,A,2943.3218,N,09520.5449,W,0.04,94.74,290316,$GPGGA,010443.000,2943.3218,N,09520.5449,W,2,09,0.93,11,
$GPRMC,010443.000,A,2943.3218,N,09520.5449,W,0.10,69.07,290316,$GPGGA,010444.000,2943.3218,N,09520.5449,W,2,09,0.93,11,
$GPRMC,010444.000,A,2943.3218,N,09520.5449,W,0.08,70.06,290316,$GPGGA,010445.000,2943.3218,N,09520.5449,W,2,09,0.93,11,
$GPRMC,010445.000,A,2943.3218,N,09520.5449,W,0.08,65.93,290316,$GPGGA,010446.000,2943.3218,N,09520.5449,W,2,09,0.93,11,
$GPRMC,010446.000,A,2943.3218,N,09520.5449,W,0.13,53.24,290316,$GPGGA,010447.000,2943.3218,N,09520.5448,W,2,09,0.93,11,
$GPRMC,010447.000,A,2943.3218,N,09520.5448,W,0.04,206.33,290316$GPGGA,010448.000,2943.3218,N,09520.5448,W,2,09,0.93,11,
$GPRMC,010448.000,A,2943.3218,N,09520.5448,W,0.06,332.90,290316$GPGGA,010449.000,2943.3218,N,09520.5448,W,2,09,0.93,11,
$GPRMC,010449.000,A,2943.3218,N,09520.5448,W,0.01,263.14,290316$GPGGA,010450.000,2943.3218,N,09520.5448,W,2,09,0.93,11,
$GPRMC,010450.000,A,2943.3218,N,09520.5448,W,0.03,11.08,290316,$GPGGA,010451.000,2943.3218,N,09520.5448,W,2,09,0.94,11,
$GPRMC,010451.000,A,2943.3218,N,09520.5448,W,0.07,40.01,290316,$GPGGA,010452.000,2943.3219,N,09520.5448,W,2,09,0.93,11,
$GPRMC,010452.000,A,2943.3219,N,09520.5448,W,0.02,215.50,290316$GPGGA,010453.000,2943.3218,N,09520.5448,W,2,09,0.93,11,
$GPRMC,010453.000,A,2943.3218,N,09520.5448,W,0.04,251.90,290316$GPGGA,010454.000,2943.3218,N,09520.5448,W,2,09,0.94,11,
$GPRMC,010454.000,A,2943.3218,N,09520.5448,W,0.03,221.15,290316$GPGGA,010455.000,2943.3218,N,09520.5448,W,2,09,0.94,11,
$GPRMC,010455.000,A,2943.3218,N,09520.5448,W,0.03,171.63,290316$GPGGA,010456.000,2943.3218,N,09520.5448,W,2,09,0.94,11,
$GPRMC,010456.000,A,2943.3218,N,09520.5448,W,0.04,164.64,290316$GPGGA,010457.000,2943.3218,N,09520.5448,W,2,09,0.94,11,
$GPRMC,010457.000,A,2943.3218,N,09520.5448,W,0.02,68.32,290316,$GPGGA,010458.000,2943.3218,N,09520.5448,W,2,09,0.94,11,
$GPRMC,010458.000,A,2943.3218,N,09520.5448,W,0.04,49.56,290316,$GPGGA,010459.000,2943.3218,N,09520.5448,W,2,09,0.94,11,
$GPRMC,010459.000,A,2943.3218,N,09520.5448,W,0.02,26.35,290316,$GPGGA,010500.000,2943.3218,N,09520.5448,W,2,09,0.94,11,
$GPRMC,010500.000,A,2943.3218,N,09520.5448,W,0.03,297.93,290316$GPGGA,010501.000,2943.3219,N,09520.5448,W,2,09,0.94,11,
$GPRMC,010501.000,A,2943.3219,N,09520.5448,W,0.03,82.39,290316,$GPGGA,010502.000,2943.3219,N,09520.5448,W,2,09,0.94,11,
$GPRMC,010502.000,A,2943.3219,N,09520.5448,W,0.02,70.32,290316,$GPGGA,010503.000,2943.3219,N,09520.5448,W,2,09,0.94,11,
$GPRMC,010503.000,A,2943.3219,N,09520.5448,W,0.05,60.38,290316,$GPGGA,010504.000,2943.3219,N,09520.5448,W,2,09,0.94,11,
$GPRMC,010504.000,A,2943.3219,N,09520.5448,W,0.02,141.88,290316$GPGGA,010505.000,2943.3219,N,09520.5448,W,2,09,0.94,11,
$GPRMC,010505.000,A,2943.3219,N,09520.5448,W,0.02,173.95,290316$GPGGA,010506.000,2943.3218,N,09520.5448,W,2,09,0.94,11,
$GPRMC,010506.000,A,2943.3218,N,09520.5448,W,0.05,100.55,290316$GPGGA,010507.000,2943.3218,N,09520.5448,W,2,09,0.94,11,
$GPRMC,010507.000,A,2943.3218,N,09520.5448,W,0.03,156.09,290316$GPGGA,010508.000,2943.3218,N,09520.5448,W,2,09,0.94,11,
$GPRMC,010508.000,A,2943.3218,N,09520.5448,W,0.04,106.26,290316$GPGGA,010509.000,2943.3218,N,09520.5448,W,2,09,0.94,11,
$GPRMC,010509.000,A,2943.3218,N,09520.5448,W,0.13,149.80,290316$GPGGA,010510.000,2943.3218,N,09520.5448,W,2,09,0.94,11,
$GPRMC,010510.000,A,2943.3218,N,09520.5448,W,0.23,123.07,290316$GPGGA,010511.000,2943.3218,N,09520.5448,W,2,09,0.94,11,
$GPRMC,010511.000,A,2943.3218,N,09520.5448,W,0.32,144.02,290316$GPGGA,010512.000,2943.3217,N,09520.5447,W,2,09,0.94,11,
$GPRMC,010512.000,A,2943.3217,N,09520.5447,W,0.55,162.84,290316$GPGGA,010513.000,2943.3216,N,09520.5447,W,2,09,0.93,11,
$GPRMC,010513.000,A,2943.3216,N,09520.5447,W,1.86,177.59,290316$GPGGA,010514.000,2943.3210,N,09520.5446,W,2,09,0.93,10,
$GPRMC,010514.000,A,2943.3210,N,09520.5446,W,1.60,160.47,290316$GPGGA,010515.000,2943.3206,N,09520.5445,W,2,09,0.93,10,
$GPRMC,010515.000,A,2943.3206,N,09520.5445,W,1.10,177.81,290316$GPGGA,010516.000,2943.3205,N,09520.5446,W,2,09,0.93,10,
$GPRMC,010516.000,A,2943.3205,N,09520.5446,W,0.19,339.59,290316$GPGGA,010517.000,2943.3205,N,09520.5447,W,2,09,0.93,10,
$GPRMC,010517.000,A,2943.3205,N,09520.5447,W,0.11,31.80,290316,$GPGGA,010518.000,2943.3205,N,09520.5448,W,2,09,0.93,10,
$GPRMC,010518.000,A,2943.3205,N,09520.5448,W,0.10,89.03,290316,$GPGGA,010519.000,2943.3205,N,09520.5449,W,2,09,0.93,10,
$GPRMC,010519.000,A,2943.3205,N,09520.5449,W,0.08,110.17,290316$GPGGA,010520.000,2943.3204,N,09520.5448,W,2,09,0.93,10,
$GPRMC,010520.000,A,2943.3204,N,09520.5448,W,0.07,146.52,290316$GPGGA,010521.000,2943.3204,N,09520.5448,W,2,09,0.93,10,
$GPRMC,010521.000,A,2943.3204,N,09520.5448,W,0.13,88.78,290316,$GPGGA,010522.000,2943.3204,N,09520.5448,W,2,09,0.93,10,
$GPRMC,010522.000,A,2943.3204,N,09520.5448,W,0.07,119.34,290316$GPGGA,010523.000,2943.3204,N,09520.5448,W,2,09,0.93,10,
$GPRMC,010523.000,A,2943.3204,N,09520.5448,W,0.32,158.34,290316$GPGGA,010524.000,2943.3203,N,09520.5447,W,2,09,0.93,10,
$GPRMC,010524.000,A,2943.3203,N,09520.5447,W,0.21,167.53,290316$GPGGA,010525.000,2943.3203,N,09520.5447,W,2,09,0.93,10,
$GPRMC,010525.000,A,2943.3203,N,09520.5447,W,0.09,263.03,290316$GPGGA,010526.000,2943.3203,N,09520.5447,W,2,09,0.93,10,
$GPRMC,010526.000,A,2943.3203,N,09520.5447,W,0.10,3.73,290316,,$GPGGA,010527.000,2943.3203,N,09520.5447,W,2,09,0.94,10,
$GPRMC,010527.000,A,2943.3203,N,09520.5447,W,0.03,120.53,290316$GPGGA,010528.000,2943.3203,N,09520.5447,W,2,09,0.93,10,
$GPRMC,010528.000,A,2943.3203,N,09520.5447,W,0.07,199.04,290316$GPGGA,010529.000,2943.3203,N,09520.5447,W,2,09,0.93,10,

$GPRMC,010752.000,A,2943.3221,N,09520.5381,W,0.45,195.06,290316,,,A*77
,
$GPGGA,010753.000,2943.3220,N,09520.5381,W,1,03,2.89,173.8,M,-23.8,M,,*59
,
$GPGGA,010754.000,2943.3220,N,09520.5380,W,1,03,2.90,173.8,M,-23.8,M,,*57
,
$GPRMC,010754.000,A,2943.3220,N,09520.5380,W,0.37,231.51,290316,,,A*7B
,
$GPGGA,010755.000,2943.3219,N,09520.5379,W,1,03,2.90,173.8,M,-23.8,M,,*5A
,
$GPGGA,010755.210,2943.3184,N,09520.5517,W,1,04,2.06,166.5,M,-23.8,M,,*51
,
$GPGGA,010757.000,2943.3168,N,09520.5565,W,1,04,2.07,163.6,M,-23.8,M,,*50
,
$GPRMC,010758.000,A,2943.3156,N,09520.5590,W,1.55,125.21,290316,,,A*76
,
$GPGGA,010759.000,2943.3148,N,09520.5606,W,1,04,2.06,158.7,M,-23.8,M,,*52
,
$GPRMC,010759.000,A,2943.3148,N,09520.5606,W,1.78,123.10,290316,,,A*7F
,
$GPGGA,010800.000,2943.3146,N,09520.5607,W,1,04,2.06,157.3,M,-23.8,M,,*55
,
$GPGGA,010801.000,2943.3144,N,09520.5610,W,1,04,2.06,155.9,M,-23.8,M,,*58
,
$GPGGA,010802.000,2943.3115,N,09520.5505,W,1,06,1.26,139.7,M,-23.8,M,,*5F
,
$GPGGA,010803.000,2943.3068,N,09520.5355,W,1,06,1.26,134.2,M,-23.8,M,,*5E
,
$GPGGA,010804.000,2943.3067,N,09520.5317,W,1,06,1.26,127.6,M,-23.8,M,,*56
,
$GPRMC,010804.000,A,2943.3067,N,09520.5317,W,0.03,91.78,290316,,,A*4A
,
$GPGGA,010805.000,2943.3070,N,09520.5320,W,1,06,1.26,121.5,M,-23.8,M,,*50
,
$GPGGA,010806.000,2943.3068,N,09520.5329,W,1,06,1.26,116.4,M,-23.8,M,,*56
,
$GPGGA,010807.000,2943.3066,N,09520.5331,W,1,06,1.26,112.3,M,-23.8,M,,*53
,
$GPGGA,010808.000,2943.3066,N,09520.5330,W,1,06,1.26,108.2,M,-23.8,M,,*57
,
$GPGGA,010809.000,2943.3065,N,09520.5335,W,1,06,1.26,104.0,M,-23.8,M,,*5E
,
$GPRMC,010809.000,A,2943.3065,N,09520.5335,W,0.01,158.33,290316,,,A*7C
,
$GPGGA,010810.000,2943.3064,N,09520.5339,W,1,06,1.26,100.2,M,-23.8,M,,*5D
,
$GPGGA,010811.000,2943.3066,N,09520.5341,W,1,06,1.26,95.9,M,-23.8,M,,*67
,
$GPGGA,010812.000,2943.3068,N,09520.5340,W,1,06,1.26,91.7,M,-23.8,M,,*61
,
$GPGGA,010813.000,2943.3071,N,09520.5336,W,1,06,1.26,86.9,M,-23.8,M,,*61
,
$GPGGA,010814.000,2943.3072,N,09520.5334,W,1,06,1.26,82.4,M,-23.8,M,,*6E
,
$GPRMC,010814.000,A,2943.3072,N,09520.5334,W,0.03,46.37,290316,,,A*4F
,
$GPGGA,010815.000,2943.3075,N,09520.5334,W,1,06,1.26,78.5,M,-23.8,M,,*6C
,
$GPGGA,010816.000,2943.3078,N,09520.5335,W,1,06,1.26,74.9,M,-23.8,M,,*63
,
$GPGGA,010817.000,2943.3080,N,09520.5336,W,1,06,1.26,71.6,M,-23.8,M,,*6C
,
$GPGGA,010818.000,2943.3081,N,09520.5337,W,1,06,1.26,68.4,M,-23.8,M,,*69
,
$GPGGA,010819.000,2943.3083,N,09520.5340,W,1,06,1.26,65.5,M,-23.8,M,,*66
,
$GPRMC,010819.000,A,2943.3083,N,09520.5340,W,0.01,111.06,290316,,,A*7C
,
$GPGGA,010820.000,2943.3081,N,09520.5341,W,1,06,1.26,64.1,M,-23.8,M,,*6A
,
$GPGGA,010821.000,2943.3079,N,09520.5344,W,1,06,1.26,62.8,M,-23.8,M,,*66
,
$GPGGA,010822.000,2943.3077,N,09520.5345,W,1,06,1.26,61.6,M,-23.8,M,,*67
,
$GPGGA,010823.000,2943.3078,N,09520.5345,W,1,06,1.26,61.5,M,-23.8,M,,*6A
,
$GPGGA,010824.000,2943.3077,N,09520.5345,W,1,06,1.26,61.5,M,-23.8,M,,*62
,
$GPRMC,010824.000,A,2943.3077,N,09520.5345,W,0.01,193.54,290316,,,A*71
,
$GPGGA,010825.000,2943.3077,N,09520.5345,W,1,06,1.26,61.4,M,-23.8,M,,*62
,
$GPGGA,010826.000,2943.3078,N,09520.5345,W,1,07,1.16,61.4,M,-23.8,M,,*6C
,
$GPGGA,010827.000,2943.3078,N,09520.5346,W,1,07,1.16,61.3,M,-23.8,M,,*69
,
$GPGGA,010828.000,2943.3077,N,09520.5346,W,1,07,1.16,61.2,M,-23.8,M,,*68
,
$GPGGA,010829.000,2943.3077,N,09520.5346,W,1,07,1.16,61.2,M,-23.8,M,,*69
,
$GPRMC,010829.000,A,2943.3077,N,09520.5346,W,0.02,199.58,290316,,,A*7A
,
$GPGGA,010830.000,2943.3077,N,09520.5346,W,1,07,1.16,61.1,M,-23.8,M,,*62
,
$GPGGA,010831.000,2943.3077,N,09520.5346,W,1,07,1.16,61.1,M,-23.8,M,,*63
,
$GPGGA,010832.000,2943.3077,N,09520.5346,W,1,07,1.16,61.0,M,-23.8,M,,*61
,
$GPGGA,010833.000,2943.3077,N,09520.5346,W,1,07,1.16,61.0,M,-23.8,M,,*60
,
$GPGGA,010834.000,2943.3077,N,09520.5346,W,1,07,1.16,60.9,M,-23.8,M,,*6F
,
$GPRMC,010834.000,A,2943.3077,N,09520.5346,W,0.02,198.69,290316,,,A*75
,
$GPGGA,010835.000,2943.3077,N,09520.5346,W,1,07,1.16,60.9,M,-23.8,M,,*6E
,
$GPGGA,010836.000,2943.3077,N,09520.5346,W,1,07,1.16,60.8,M,-23.8,M,,*6C
,
$GPGGA,010837.000,2943.3077,N,09520.5346,W,1,07,1.16,60.8,M,-23.8,M,,*6D
,
$GPRMC,010838.000,A,2943.3077,N,09520.5346,W,0.02,142.41,290316,,,A*74
,
$GPGGA,010839.000,2943.3077,N,09520.5346,W,1,07,1.16,60.8,M,-23.8,M,,*63
,
$GPRMC,010839.000,A,2943.3077,N,09520.5346,W,0.04,133.57,290316,,,A*72
,
$GPGGA,010840.000,2943.3077,N,09520.5346,W,1,07,1.21,60.7,M,-23.8,M,,*66
,
$GPGGA,010841.000,2943.3077,N,09520.5346,W,1,07,1.22,60.7,M,-23.8,M,,*64
,
$GPGGA,010842.000,2943.3077,N,09520.5346,W,1,07,1.21,60.7,M,-23.8,M,,*64
,
$GPGGA,010843.000,2943.3077,N,09520.5346,W,1,07,1.22,60.7,M,-23.8,M,,*66
,
$GPGGA,010844.000,2943.3077,N,09520.5346,W,1,07,1.21,60.6,M,-23.8,M,,*63
,
$GPRMC,010844.000,A,2943.3077,N,09520.5346,W,0.18,132.38,290316,,,A*7D
,
$GPGGA,010845.000,2943.3077,N,09520.5346,W,1,07,1.16,60.6,M,-23.8,M,,*66
,
$GPGGA,010846.000,2943.3075,N,09520.5344,W,1,07,1.16,59.2,M,-23.8,M,,*6B
,
$GPGGA,010847.000,2943.3071,N,09520.5342,W,1,07,1.16,57.8,M,-23.8,M,,*6C
,
$GPGGA,010848.000,2943.3066,N,09520.5340,W,1,07,1.16,56.5,M,-23.8,M,,*6B
,
$GPGGA,010849.000,2943.3062,N,09520.5339,W,1,07,1.16,55.3,M,-23.8,M,,*65
,
$GPRMC,010849.000,A,2943.3062,N,09520.5339,W,2.41,139.54,290316,,,A*73
,
$GPGGA,010850.000,2943.3059,N,09520.5337,W,1,07,1.16,53.9,M,-23.8,M,,*67
,
$GPGGA,010851.000,2943.3055,N,09520.5337,W,1,07,1.16,52.8,M,-23.8,M,,*6A
,
$GPGGA,010852.000,2943.3052,N,09520.5337,W,1,07,1.16,51.9,M,-23.8,M,,*6C
,
$GPGGA,010853.000,2943.3051,N,09520.5336,W,1,07,1.16,50.8,M,-23.8,M,,*6F
,
$GPGGA,010854.000,2943.3050,N,09520.5334,W,1,07,1.16,50.0,M,-23.8,M,,*63
,
$GPRMC,010854.000,A,2943.3050,N,09520.5334,W,1.16,160.38,290316,,,A*74
,
$GPGGA,010855.000,2943.3050,N,09520.5332,W,1,07,1.16,49.2,M,-23.8,M,,*6E
,
$GPGGA,010856.000,2943.3049,N,09520.5328,W,1,07,1.16,48.5,M,-23.8,M,,*68
,
$GPGGA,010857.000,2943.3048,N,09520.5323,W,1,07,1.16,47.8,M,-23.8,M,,*61
,
$GPGGA,010858.000,2943.3048,N,09520.5319,W,1,07,1.16,47.3,M,-23.8,M,,*6C
,
$GPGGA,010859.000,2943.3048,N,09520.5314,W,1,07,1.16,46.8,M,-23.8,M,,*6A
,
$GPRMC,010859.000,A,2943.3048,N,09520.5314,W,2.00,108.62,290316,,,A*77
,
$GPGGA,010900.000,2943.3047,N,09520.5310,W,1,07,1.16,46.6,M,-23.8,M,,*62
,
$GPGGA,010901.000,2943.3047,N,09520.5306,W,1,07,1.16,46.1,M,-23.8,M,,*63
,
$GPGGA,010902.000,2943.3047,N,09520.5302,W,1,07,1.16,45.8,M,-23.8,M,,*6E
,
$GPGGA,010903.000,2943.3047,N,09520.5298,W,1,07,1.16,45.4,M,-23.8,M,,*61
,
$GPGGA,010904.000,2943.3046,N,09520.5294,W,1,07,1.16,45.0,M,-23.8,M,,*6F
,
$GPRMC,010904.000,A,2943.3046,N,09520.5294,W,1.94,104.88,290316,,,A*7F
,
$GPGGA,010905.000,2943.3047,N,09520.5288,W,1,07,1.16,44.7,M,-23.8,M,,*64
,
$GPGGA,010906.000,2943.3046,N,09520.5285,W,1,07,1.16,44.4,M,-23.8,M,,*68
,
$GPGGA,010907.000,2943.3045,N,09520.5283,W,1,07,1.16,44.0,M,-23.8,M,,*68
,
$GPGGA,010908.000,2943.3045,N,09520.5281,W,1,07,1.16,43.7,M,-23.8,M,,*65
,
$GPGGA,010909.000,2943.3044,N,09520.5278,W,1,07,1.16,43.3,M,-23.8,M,,*67
,
$GPRMC,010909.000,A,2943.3044,N,09520.5278,W,1.47,110.09,290316,,,A*70
,
$GPGGA,010910.000,2943.3042,N,09520.5276,W,1,07,1.16,43.1,M,-23.8,M,,*65
,
$GPGGA,010911.000,2943.3040,N,09520.5274,W,1,07,1.16,42.8,M,-23.8,M,,*6C
,
$GPGGA,010912.000,2943.3038,N,09520.5271,W,1,07,1.16,42.6,M,-23.8,M,,*6B
,
$GPGGA,010913.000,2943.3036,N,09520.5268,W,1,07,1.16,42.3,M,-23.8,M,,*69
,
$GPGGA,010914.000,2943.3034,N,09520.5266,W,1,07,1.16,42.2,M,-23.8,M,,*63
,
$GPRMC,010914.000,A,2943.3034,N,09520.5266,W,1.79,117.88,290316,,,A*77
,
$GPGGA,010915.000,2943.3033,N,09520.5262,W,1,07,1.16,42.1,M,-23.8,M,,*62
,
$GPGGA,010916.000,2943.3032,N,09520.5258,W,1,07,1.16,41.9,M,-23.8,M,,*62
,
$GPGGA,010917.000,2943.3031,N,09520.5253,W,1,07,1.16,41.7,M,-23.8,M,,*65
,
$GPGGA,010918.000,2943.3030,N,09520.5248,W,1,07,1.16,41.5,M,-23.8,M,,*63
,
$GPGGA,010919.000,2943.3028,N,09520.5243,W,1,07,1.16,41.2,M,-23.8,M,,*67
,
$GPRMC,010919.000,A,2943.3028,N,09520.5243,W,2.15,112.21,290316,,,A*7F
,
$GPGGA,010920.000,2943.3028,N,09520.5238,W,1,07,1.16,41.0,M,-23.8,M,,*63
,
$GPGGA,010921.000,2943.3027,N,09520.5232,W,1,07,1.16,40.9,M,-23.8,M,,*6F
,
$GPGGA,010922.000,2943.3027,N,09520.5226,W,1,07,1.16,40.8,M,-23.8,M,,*68
,
$GPGGA,010923.000,2943.3028,N,09520.5223,W,1,07,1.16,40.7,M,-23.8,M,,*6C
,
$GPRMC,010924.000,A,2943.3029,N,09520.5219,W,1.07,90.16,290316,,,A*40
,
$GPGGA,010925.000,2943.3031,N,09520.5218,W,1,07,1.16,40.5,M,-23.8,M,,*68
,
$GPGGA,010926.000,2943.3030,N,09520.5214,W,1,07,1.16,40.3,M,-23.8,M,,*60
,
$GPGGA,010927.000,2943.3029,N,09520.5210,W,1,07,1.16,40.2,M,-23.8,M,,*6C
,
$GPGGA,010928.000,2943.3029,N,09520.5205,W,1,07,1.16,40.1,M,-23.8,M,,*64
,
$GPGGA,010929.000,2943.3028,N,09520.5200,W,1,07,1.16,39.9,M,-23.8,M,,*67
,
$GPRMC,010929.000,A,2943.3028,N,09520.5200,W,1.53,101.85,290316,,,A*76
,
$GPGGA,010930.000,2943.3026,N,09520.5194,W,1,07,1.16,39.8,M,-23.8,M,,*6E
,
$GPGGA,010931.000,2943.3023,N,09520.5188,W,1,07,1.16,39.7,M,-23.8,M,,*68
,
$GPGGA,010932.000,2943.3021,N,09520.5182,W,1,07,1.16,39.5,M,-23.8,M,,*61
,
$GPGGA,010933.000,2943.3019,N,09520.5177,W,1,07,1.16,39.4,M,-23.8,M,,*60
,
$GPGGA,010934.000,2943.3018,N,09520.5173,W,1,07,1.16,39.3,M,-23.8,M,,*65
,
$GPRMC,010934.000,A,2943.3018,N,09520.5173,W,1.63,110.80,290316,,,A*78
,
$GPGGA,010935.000,2943.3016,N,09520.5169,W,1,06,1.42,39.1,M,-23.8,M,,*63
,
$GPGGA,010936.000,2943.3016,N,09520.5162,W,1,06,1.42,38.9,M,-23.8,M,,*62
,
$GPGGA,010937.000,2943.3014,N,09520.5155,W,1,07,1.16,38.7,M,-23.8,M,,*6B
,
$GPGGA,010938.000,2943.3013,N,09520.5150,W,1,07,1.16,38.6,M,-23.8,M,,*67
,
$GPGGA,010939.000,2943.3011,N,09520.5144,W,1,07,1.16,38.4,M,-23.8,M,,*63
,
$GPRMC,010939.000,A,2943.3011,N,09520.5144,W,1.98,110.29,290316,,,A*7F
,
$GPGGA,010940.000,2943.3010,N,09520.5138,W,1,07,1.16,38.3,M,-23.8,M,,*60
,
$GPGGA,010941.000,2943.3008,N,09520.5131,W,1,07,1.16,38.2,M,-23.8,M,,*60
,
$GPGGA,010942.000,2943.3006,N,09520.5125,W,1,07,1.16,37.9,M,-23.8,M,,*6C
,
$GPGGA,010943.000,2943.3003,N,09520.5119,W,1,07,1.16,37.7,M,-23.8,M,,*69
,
$GPGGA,010944.000,2943.3000,N,09520.5113,W,1,07,1.16,37.5,M,-23.8,M,,*65
,
$GPRMC,010944.000,A,2943.3000,N,09520.5113,W,1.87,121.24,290316,,,A*76
,
$GPGGA,010945.000,2943.2997,N,09520.5107,W,1,07,1.16,37.4,M,-23.8,M,,*66
,
$GPGGA,010946.000,2943.2995,N,09520.5099,W,1,07,1.16,37.2,M,-23.8,M,,*67
,
$GPGGA,010947.000,2943.2993,N,09520.5093,W,1,06,1.42,37.0,M,-23.8,M,,*68
,
$GPGGA,010948.000,2943.2992,N,09520.5088,W,1,07,1.16,36.8,M,-23.8,M,,*65
,
$GPGGA,010949.000,2943.2991,N,09520.5083,W,1,07,1.16,36.6,M,-23.8,M,,*62
,
$GPRMC,010949.000,A,2943.2991,N,09520.5083,W,1.47,113.97,290316,,,A*76
,
$GPGGA,010950.000,2943.2990,N,09520.5080,W,1,07,1.16,36.5,M,-23.8,M,,*6B
,
$GPGGA,010951.000,2943.2988,N,09520.5074,W,1,07,1.16,36.3,M,-23.8,M,,*6E
,
$GPGGA,010952.000,2943.2988,N,09520.5068,W,1,07,1.16,36.2,M,-23.8,M,,*61
,
$GPGGA,010953.000,2943.2986,N,09520.5061,W,1,07,1.16,36.1,M,-23.8,M,,*64
,
$GPGGA,010954.000,2943.2984,N,09520.5055,W,1,07,1.16,35.9,M,-23.8,M,,*6D
,
$GPRMC,010954.000,A,2943.2984,N,09520.5055,W,1.73,112.96,290316,,,A*72
,
$GPGGA,010955.000,2943.2982,N,09520.5048,W,1,07,1.16,35.6,M,-23.8,M,,*69
,
$GPGGA,010956.000,2943.2979,N,09520.5041,W,1,07,1.16,35.4,M,-23.8,M,,*65
,
$GPGGA,010957.000,2943.2976,N,09520.5034,W,1,07,1.16,35.2,M,-23.8,M,,*6F
,
$GPGGA,010958.000,2943.2975,N,09520.5027,W,1,07,1.16,34.9,M,-23.8,M,,*6B
,
$GPGGA,010959.000,2943.2972,N,09520.5020,W,1,07,1.16,34.6,M,-23.8,M,,*65
,
$GPRMC,010959.000,A,2943.2972,N,09520.5020,W,1.82,118.36,290316,,,A*7A
,
$GPGGA,011000.000,2943.2970,N,09520.5013,W,1,07,1.16,34.4,M,-23.8,M,,*61
,
$GPGGA,011001.000,2943.2967,N,09520.5006,W,1,07,1.16,34.2,M,-23.8,M,,*64
,
$GPGGA,011002.000,2943.2966,N,09520.4998,W,1,07,1.16,33.9,M,-23.8,M,,*65
,
$GPGGA,011003.000,2943.2963,N,09520.4993,W,1,07,1.16,33.7,M,-23.8,M,,*64
,
$GPGGA,011004.000,2943.2961,N,09520.4988,W,1,07,1.16,33.5,M,-23.8,M,,*69
,
$GPRMC,011004.000,A,2943.2961,N,09520.4988,W,1.56,118.62,290316,,,A*7A
,
$GPGGA,011005.000,2943.2958,N,09520.4983,W,1,07,1.16,33.3,M,-23.8,M,,*6F
,
$GPGGA,011006.000,2943.2956,N,09520.4980,W,1,07,1.16,33.2,M,-23.8,M,,*60
,
$GPGGA,011007.000,2943.2954,N,09520.4974,W,1,07,1.16,32.9,M,-23.8,M,,*62
,
$GPGGA,011008.000,2943.2950,N,09520.4968,W,1,07,1.16,32.7,M,-23.8,M,,*6A
,
$GPGGA,011009.000,2943.2948,N,09520.4962,W,2,07,1.16,32.4,M,-23.8,M,0000,0000*68
,
$GPRMC,011009.000,A,2943.2948,N,09520.4962,W,1.59,115.04,290316,,,D*7F
,
$GPGGA,011010.000,2943.2944,N,09520.4953,W,2,07,1.16,32.1,M,-23.8,M,0000,0000*6B
,
$GPGGA,011011.000,2943.2940,N,09520.4946,W,2,07,1.16,31.8,M,-23.8,M,0000,0000*60
,
$GPGGA,011012.000,2943.2938,N,09520.4938,W,2,07,1.16,31.4,M,-23.8,M,0000,0000*69
,
$GPGGA,011013.000,2943.2936,N,09520.4932,W,2,07,1.16,31.2,M,-23.8,M,0000,0000*6A
,
$GPGGA,011014.000,2943.2933,N,09520.4924,W,2,07,1.16,30.9,M,-23.8,M,0000,0000*65
,
$GPRMC,011014.000,A,2943.2933,N,09520.4924,W,1.93,114.78,290316,,,D*71
,
$GPGGA,011015.000,2943.2930,N,09520.4915,W,2,07,1.16,30.7,M,-23.8,M,0000,0000*6B
,
$GPGGA,011016.000,2943.2926,N,09520.4907,W,2,07,1.16,30.2,M,-23.8,M,0000,0000*69
,
$GPGGA,011017.000,2943.2919,N,09520.4900,W,2,07,1.16,29.7,M,-23.8,M,0000,0000*6E
,
$GPGGA,011018.000,2943.2917,N,09520.4893,W,2,07,1.16,29.4,M,-23.8,M,0000,0000*67
,
$GPGGA,011019.000,2943.2914,N,09520.4885,W,2,07,1.16,29.1,M,-23.8,M,0000,0000*67
,
$GPRMC,011019.000,A,2943.2914,N,09520.4885,W,1.86,113.71,290316,,,D*79
,
$GPGGA,011020.000,2943.2912,N,09520.4879,W,2,07,1.16,28.7,M,-23.8,M,0000,0000*6F
,
$GPGGA,011021.000,2943.2908,N,09520.4871,W,2,07,1.16,28.3,M,-23.8,M,0000,0000*69
,
$GPGGA,011022.000,2943.2906,N,09520.4866,W,2,07,1.16,28.0,M,-23.8,M,0000,0000*61
,
$GPGGA,011023.000,2943.2904,N,09520.4858,W,2,07,1.16,27.6,M,-23.8,M,0000,0000*66
,
$GPGGA,011024.000,2943.2902,N,09520.4853,W,2,07,1.16,27.2,M,-23.8,M,0000,0000*68
,
$GPRMC,011024.000,A,2943.2902,N,09520.4853,W,1.71,117.54,290316,,,D*70
,
$GPGGA,011025.000,2943.2901,N,09520.4844,W,2,07,1.16,26.8,M,-23.8,M,0000,0000*67
,
$GPGGA,011026.000,2943.2900,N,09520.4837,W,2,07,1.16,26.5,M,-23.8,M,0000,0000*6C
,
$GPGGA,011027.000,2943.2900,N,09520.4825,W,2,07,1.16,26.2,M,-23.8,M,0000,0000*69
,
$GPGGA,011028.000,2943.2899,N,09520.4816,W,2,07,1.16,25.9,M,-23.8,M,0000,0000*6F
,
$GPGGA,011029.000,2943.2899,N,09520.4806,W,2,07,1.16,25.5,M,-23.8,M,0000,0000*63
,
$GPRMC,011029.000,A,2943.2899,N,09520.4806,W,1.91,106.22,290316,,,D*71
,
$GPGGA,011030.000,2943.2900,N,09520.4794,W,2,07,1.16,25.1,M,-23.8,M,0000,0000*6A
,
$GPGGA,011031.000,2943.2901,N,09520.4783,W,2,07,1.16,24.5,M,-23.8,M,0000,0000*69
,
$GPGGA,011032.000,2943.2902,N,09520.4772,W,2,07,1.16,24.1,M,-23.8,M,0000,0000*63
,
$GPGGA,011033.000,2943.2904,N,09520.4762,W,2,07,1.16,23.7,M,-23.8,M,0000,0000*64
,
$GPGGA,011034.000,2943.2905,N,09520.4751,W,2,07,1.16,23.5,M,-23.8,M,0000,0000*60
,
$GPRMC,011034.000,A,2943.2905,N,09520.4751,W,2.14,92.10,290316,,,D*47
,
$GPGGA,011035.000,2943.2906,N,09520.4742,W,2,07,1.16,23.3,M,-23.8,M,0000,0000*66
,
$GPGGA,011036.000,2943.2907,N,09520.4733,W,2,07,1.16,23.2,M,-23.8,M,0000,0000*63
,
$GPGGA,011037.000,2943.2908,N,09520.4726,W,2,07,1.16,22.9,M,-23.8,M,0000,0000*63
,
$GPGGA,011038.000,2943.2910,N,09520.4718,W,2,07,1.16,22.5,M,-23.8,M,0000,0000*64
,
$GPGGA,011039.000,2943.2912,N,09520.4711,W,2,07,1.16,22.2,M,-23.8,M,0000,0000*69
,
$GPRMC,011039.000,A,2943.2912,N,09520.4711,W,2.09,72.73,290316,,,D*4F
,
$GPGGA,011040.000,2943.2914,N,09520.4704,W,2,07,1.16,21.8,M,-23.8,M,0000,0000*6C
,
$GPGGA,011041.000,2943.2915,N,09520.4698,W,2,07,1.16,21.5,M,-23.8,M,0000,0000*65
,
$GPGGA,011042.000,2943.2917,N,09520.4692,W,2,07,1.16,21.1,M,-23.8,M,0000,0000*6A
,
$GPGGA,011043.000,2943.2919,N,09520.4685,W,2,07,1.16,20.9,M,-23.8,M,0000,0000*6A
,
$GPGGA,011044.000,2943.2923,N,09520.4679,W,2,07,1.16,20.6,M,-23.8,M,0000,0000*68
,
$GPRMC,011044.000,A,2943.2923,N,09520.4679,W,2.11,37.93,290316,,,D*4E
,
$GPGGA,011045.000,2943.2929,N,09520.4676,W,2,07,1.16,20.4,M,-23.8,M,0000,0000*6E
,
$GPGGA,011046.000,2943.2934,N,09520.4674,W,2,07,1.16,20.3,M,-23.8,M,0000,0000*64
,
$GPGGA,011047.000,2943.2939,N,09520.4671,W,2,07,1.16,20.0,M,-23.8,M,0000,0000*6E
,
$GPGGA,011048.000,2943.2945,N,09520.4670,W,2,07,1.16,19.7,M,-23.8,M,0000,0000*66
,
$GPGGA,011049.000,2943.2950,N,09520.4669,W,2,07,1.16,19.4,M,-23.8,M,0000,0000*68
,
$GPRMC,011049.000,A,2943.2950,N,09520.4669,W,2.05,19.32,290316,,,D*44
,
$GPGGA,011050.000,2943.2955,N,09520.4667,W,2,07,1.16,19.3,M,-23.8,M,0000,0000*6C
,
$GPGGA,011051.000,2943.2961,N,09520.4665,W,2,07,1.16,19.1,M,-23.8,M,0000,0000*6A
,
$GPRMC,011052.000,A,2943.2967,N,09520.4663,W,2.07,14.06,290316,,,D*48
,
$GPGGA,011053.000,2943.2973,N,09520.4661,W,2,07,1.22,18.7,M,-23.8,M,0000,0000*6F
,
$GPGGA,011054.000,2943.2979,N,09520.4659,W,2,07,1.22,18.6,M,-23.8,M,0000,0000*68
,
$GPRMC,011054.000,A,2943.2979,N,09520.4659,W,1.88,19.99,290316,,,D*47
,
$GPGGA,011055.000,2943.2983,N,09520.4657,W,2,07,1.16,18.5,M,-23.8,M,0000,0000*66
,
$GPGGA,011056.000,2943.2984,N,09520.4656,W,2,07,1.16,18.3,M,-23.8,M,0000,0000*65
,
$GPGGA,011057.000,2943.2985,N,09520.4654,W,2,07,1.16,18.3,M,-23.8,M,0000,0000*67
,
$GPGGA,011058.000,2943.2986,N,09520.4652,W,2,07,1.16,18.2,M,-23.8,M,0000,0000*6C
,
$GPGGA,011059.000,2943.2988,N,09520.4651,W,2,07,1.16,18.2,M,-23.8,M,0000,0000*60
,
$GPRMC,011059.000,A,2943.2988,N,09520.4651,W,0.03,337.55,290316,,,D*71
,
$GPGGA,011100.000,2943.2988,N,09520.4651,W,2,07,1.16,18.2,M,-23.8,M,0000,0000*6D
,
$GPGGA,011101.000,2943.2993,N,09520.4648,W,2,07,1.16,18.0,M,-23.8,M,0000,0000*6C
,
$GPGGA,011102.000,2943.3000,N,09520.4641,W,2,08,1.02,18.3,M,-23.8,M,0000,0000*6D
,
$GPGGA,011103.000,2943.3006,N,09520.4635,W,2,08,1.02,18.7,M,-23.8,M,0000,0000*6D
,
$GPGGA,011104.000,2943.3012,N,09520.4628,W,2,08,1.02,18.8,M,-23.8,M,0000,0000*6C
,
$GPRMC,011104.000,A,2943.3012,N,09520.4628,W,1.86,20.08,290316,,,D*4C
,
$GPGGA,011105.000,2943.3017,N,09520.4620,W,2,08,1.02,19.4,M,-23.8,M,0000,0000*6D
,
$GPGGA,011106.000,2943.3024,N,09520.4612,W,2,08,1.02,20.1,M,-23.8,M,0000,0000*60
,
$GPGGA,011107.000,2943.3031,N,09520.4603,W,2,08,1.02,20.6,M,-23.8,M,0000,0000*62
,
$GPGGA,011108.000,2943.3037,N,09520.4602,W,2,08,1.02,20.6,M,-23.8,M,0000,0000*6A
,
$GPGGA,011109.000,2943.3042,N,09520.4600,W,2,08,1.02,20.8,M,-23.8,M,0000,0000*65
,
$GPRMC,011109.000,A,2943.3042,N,09520.4600,W,2.09,2.27,290316,,,D*77
,
$GPGGA,011110.000,2943.3046,N,09520.4599,W,2,08,1.02,21.5,M,-23.8,M,0000,0000*66
,
$GPGGA,011111.000,2943.3051,N,09520.4597,W,2,08,1.02,21.7,M,-23.8,M,0000,0000*6D
,
$GPGGA,011112.000,2943.3056,N,09520.4595,W,2,08,1.02,22.1,M,-23.8,M,0000,0000*6E
,
$GPGGA,011113.000,2943.3061,N,09520.4595,W,2,08,1.02,22.3,M,-23.8,M,0000,0000*69
,
$GPGGA,011114.000,2943.3066,N,09520.4592,W,2,08,1.02,22.7,M,-23.8,M,0000,0000*6A
,
$GPRMC,011114.000,A,2943.3066,N,09520.4592,W,1.63,19.57,290316,,,D*47
,
$GPGGA,011115.000,2943.3072,N,09520.4585,W,2,08,1.02,23.0,M,-23.8,M,0000,0000*6E
,
$GPGGA,011116.000,2943.3079,N,09520.4583,W,2,08,1.02,22.7,M,-23.8,M,0000,0000*66
,
$GPGGA,011117.000,2943.3085,N,09520.4580,W,2,08,1.02,22.8,M,-23.8,M,0000,0000*68
,
$GPGGA,011118.000,2943.3090,N,09520.4576,W,2,08,1.02,23.3,M,-23.8,M,0000,0000*60
,
$GPGGA,011119.000,2943.3095,N,09520.4575,W,2,08,1.02,23.3,M,-23.8,M,0000,0000*67
,
$GPRMC,011119.000,A,2943.3095,N,09520.4575,W,2.03,19.54,290316,,,D*49
,
$GPGGA,011120.000,2943.3102,N,09520.4576,W,2,08,1.02,23.1,M,-23.8,M,0000,0000*63
,
$GPGGA,011121.000,2943.3107,N,09520.4574,W,2,08,1.02,23.2,M,-23.8,M,0000,0000*66
,
$GPGGA,011122.000,2943.3114,N,09520.4572,W,2,08,1.02,23.2,M,-23.8,M,0000,0000*61
,
$GPGGA,011123.000,2943.3118,N,09520.4570,W,2,08,1.02,23.5,M,-23.8,M,0000,0000*69
,
$GPGGA,011124.000,2943.3124,N,09520.4571,W,2,08,1.02,23.6,M,-23.8,M,0000,0000*63
,
$GPRMC,011124.000,A,2943.3124,N,09520.4571,W,2.23,19.36,290316,,,D*4E
,
$GPGGA,011125.000,2943.3131,N,09520.4572,W,2,08,1.02,23.5,M,-23.8,M,0000,0000*66
,
$GPGGA,011126.000,2943.3138,N,09520.4574,W,2,08,1.02,23.2,M,-23.8,M,0000,0000*6D
,
$GPGGA,011127.000,2943.3144,N,09520.4574,W,2,08,1.02,23.0,M,-23.8,M,0000,0000*65
,
$GPGGA,011128.000,2943.3151,N,09520.4574,W,2,08,1.02,23.0,M,-23.8,M,0000,0000*6E
,
$GPGGA,011129.000,2943.3158,N,09520.4574,W,2,08,1.02,22.8,M,-23.8,M,0000,0000*6F
,
$GPRMC,011129.000,A,2943.3158,N,09520.4574,W,2.29,21.45,290316,,,D*48
,
$GPGGA,011130.000,2943.3165,N,09520.4573,W,2,08,1.02,22.7,M,-23.8,M,0000,0000*61
,
$GPGGA,011131.000,2943.3171,N,09520.4571,W,2,08,1.02,22.8,M,-23.8,M,0000,0000*68
,
$GPGGA,011132.000,2943.3177,N,09520.4570,W,2,08,1.02,22.7,M,-23.8,M,0000,0000*63
,
$GPGGA,011133.000,2943.3183,N,09520.4569,W,2,08,1.02,22.4,M,-23.8,M,0000,0000*62
,
$GPGGA,011134.000,2943.3190,N,09520.4568,W,2,08,1.02,22.1,M,-23.8,M,0000,0000*63
,
$GPRMC,011134.000,A,2943.3190,N,09520.4568,W,2.19,14.67,290316,,,D*48
,
$GPGGA,011135.000,2943.3197,N,09520.4567,W,2,08,1.02,21.8,M,-23.8,M,0000,0000*60
,
$GPGGA,011136.000,2943.3202,N,09520.4566,W,2,08,1.02,21.4,M,-23.8,M,0000,0000*61
,
$GPGGA,011137.000,2943.3207,N,09520.4566,W,2,08,1.02,21.0,M,-23.8,M,0000,0000*61
,
$GPGGA,011138.000,2943.3213,N,09520.4565,W,2,08,1.02,20.8,M,-23.8,M,0000,0000*61
,
$GPGGA,011139.000,2943.3219,N,09520.4565,W,2,08,1.02,20.4,M,-23.8,M,0000,0000*66
,
$GPRMC,011139.000,A,2943.3219,N,09520.4565,W,2.14,16.10,290316,,,D*45
,
$GPGGA,011140.000,2943.3225,N,09520.4564,W,2,08,1.02,19.9,M,-23.8,M,0000,0000*61
,
$GPGGA,011141.000,2943.3231,N,09520.4563,W,2,08,1.02,19.4,M,-23.8,M,0000,0000*6F
,
$GPGGA,011142.000,2943.3237,N,09520.4562,W,2,08,1.02,19.0,M,-23.8,M,0000,0000*6F
,
$GPGGA,011143.000,2943.3243,N,09520.4561,W,2,08,1.02,18.6,M,-23.8,M,0000,0000*69
,
$GPGGA,011144.000,2943.3249,N,09520.4560,W,2,08,1.02,18.3,M,-23.8,M,0000,0000*60
,
$GPRMC,011144.000,A,2943.3249,N,09520.4560,W,1.96,25.28,290316,,,D*4D
,
$GPGGA,011145.000,2943.3254,N,09520.4558,W,2,08,1.02,18.0,M,-23.8,M,0000,0000*65
,
$GPGGA,011146.000,2943.3260,N,09520.4556,W,2,08,1.02,17.7,M,-23.8,M,0000,0000*67
,
$GPGGA,011147.000,2943.3266,N,09520.4554,W,2,08,1.02,17.4,M,-23.8,M,0000,0000*61
,
$GPGGA,011148.000,2943.3272,N,09520.4552,W,2,08,1.02,17.2,M,-23.8,M,0000,0000*6B
,
$GPGGA,011149.000,2943.3277,N,09520.4550,W,2,08,1.02,17.1,M,-23.8,M,0000,0000*6E
,
$GPRMC,011149.000,A,2943.3277,N,09520.4550,W,1.97,25.54,290316,,,D*44
,
$GPGGA,011150.000,2943.3281,N,09520.4547,W,2,08,1.02,16.9,M,-23.8,M,0000,0000*60
,
$GPGGA,011151.000,2943.3284,N,09520.4543,W,2,08,1.02,16.7,M,-23.8,M,0000,0000*6E
,
$GPGGA,011152.000,2943.3288,N,09520.4539,W,2,08,1.02,16.6,M,-23.8,M,0000,0000*6D
,
$GPGGA,011153.000,2943.3292,N,09520.4535,W,2,08,1.02,16.5,M,-23.8,M,0000,0000*68
,
$GPGGA,011154.000,2943.3296,N,09520.4531,W,2,08,1.02,16.2,M,-23.8,M,0000,0000*68
,
$GPRMC,011154.000,A,2943.3296,N,09520.4531,W,2.24,35.49,290316,,,D*46
,
$GPGGA,011155.000,2943.3300,N,09520.4526,W,2,08,1.02,16.2,M,-23.8,M,0000,0000*61
,
$GPGGA,011156.000,2943.3303,N,09520.4521,W,2,07,1.08,16.1,M,-23.8,M,0000,0000*60
,
$GPGGA,011157.000,2943.3307,N,09520.4516,W,2,08,1.02,15.9,M,-23.8,M,0000,0000*6F
,
$GPGGA,011158.000,2943.3310,N,09520.4512,W,2,08,1.02,15.9,M,-23.8,M,0000,0000*62
,
$GPGGA,011159.000,2943.3314,N,09520.4509,W,2,08,1.02,16.0,M,-23.8,M,0000,0000*67
,
$GPRMC,011159.000,A,2943.3314,N,09520.4509,W,1.93,38.02,290316,,,D*46
,
$GPGGA,011200.000,2943.3317,N,09520.4506,W,2,08,1.02,16.0,M,-23.8,M,0000,0000*64
,
$GPGGA,011201.000,2943.3320,N,09520.4503,W,2,08,1.02,16.0,M,-23.8,M,0000,0000*64
,
$GPGGA,011202.000,2943.3323,N,09520.4500,W,2,08,1.02,16.0,M,-23.8,M,0000,0000*67
,
$GPGGA,011203.000,2943.3328,N,09520.4498,W,2,08,1.02,16.1,M,-23.8,M,0000,0000*6C
,
$GPGGA,011204.000,2943.3332,N,09520.4495,W,2,08,1.02,16.2,M,-23.8,M,0000,0000*6E
,
$GPRMC,011204.000,A,2943.3332,N,09520.4495,W,1.98,17.48,290316,,,D*45
,
$GPGGA,011205.000,2943.3337,N,09520.4493,W,2,08,1.02,16.1,M,-23.8,M,0000,0000*6F
,
$GPGGA,011206.000,2943.3343,N,09520.4491,W,2,08,1.02,16.0,M,-23.8,M,0000,0000*6C
,
$GPGGA,011207.000,2943.3349,N,09520.4488,W,2,08,1.02,15.8,M,-23.8,M,0000,0000*64
,
$GPGGA,011208.000,2943.3355,N,09520.4485,W,2,08,1.02,15.7,M,-23.8,M,0000,0000*64
,
$GPGGA,011209.000,2943.3362,N,09520.4482,W,2,08,1.02,15.6,M,-23.8,M,0000,0000*67
,
$GPRMC,011209.000,A,2943.3362,N,09520.4482,W,2.21,19.78,290316,,,D*47
,
$GPGGA,011210.000,2943.3368,N,09520.4480,W,2,08,1.02,15.4,M,-23.8,M,0000,0000*65
,
$GPGGA,011211.000,2943.3374,N,09520.4478,W,2,08,1.02,15.2,M,-23.8,M,0000,0000*68
,
$GPGGA,011212.000,2943.3380,N,09520.4475,W,2,08,1.02,14.9,M,-23.8,M,0000,0000*67
,
$GPGGA,011213.000,2943.3386,N,09520.4473,W,2,08,1.02,14.6,M,-23.8,M,0000,0000*69
,
$GPGGA,011214.000,2943.3392,N,09520.4470,W,2,08,1.02,14.4,M,-23.8,M,0000,0000*6A
,
$GPRMC,011214.000,A,2943.3392,N,09520.4470,W,2.16,22.20,290316,,,D*48
,
$GPGGA,011215.000,2943.3397,N,09520.4467,W,2,08,1.02,14.2,M,-23.8,M,0000,0000*6E
,
$GPRMC,011216.000,A,2943.3403,N,09520.4465,W,2.29,12.32,290316,,,D*4D
,
$GPGGA,011217.000,2943.3409,N,09520.4462,W,2,08,1.02,14.1,M,-23.8,M,0000,0000*6A
,
$GPGGA,011218.000,2943.3414,N,09520.4459,W,2,08,1.02,13.9,M,-23.8,M,0000,0000*6E
,
$GPGGA,011219.000,2943.3420,N,09520.4456,W,2,08,1.02,13.7,M,-23.8,M,0000,0000*69
,
$GPRMC,011219.000,A,2943.3420,N,09520.4456,W,2.20,22.62,290316,,,D*4C
,
$GPGGA,011220.000,2943.3426,N,09520.4453,W,2,08,1.02,13.4,M,-23.8,M,0000,0000*63
,
$GPGGA,011221.000,2943.3431,N,09520.4450,W,2,08,1.02,13.2,M,-23.8,M,0000,0000*61
,
$GPGGA,011222.000,2943.3438,N,09520.4447,W,2,08,1.02,12.9,M,-23.8,M,0000,0000*67
,
$GPGGA,011223.000,2943.3444,N,09520.4443,W,2,08,1.02,12.9,M,-23.8,M,0000,0000*69
,
$GPGGA,011224.000,2943.3450,N,09520.4440,W,2,08,1.02,12.8,M,-23.8,M,0000,0000*69
,
$GPRMC,011224.000,A,2943.3450,N,09520.4440,W,2.08,17.01,290316,,,D*4B
,
$GPGGA,011225.000,2943.3456,N,09520.4437,W,2,08,1.02,12.7,M,-23.8,M,0000,0000*61
,
$GPGGA,011226.000,2943.3461,N,09520.4435,W,2,08,1.02,12.5,M,-23.8,M,0000,0000*66
,
$GPGGA,011227.000,2943.3467,N,09520.4433,W,2,08,1.02,12.5,M,-23.8,M,0000,0000*67
,
$GPGGA,011228.000,2943.3472,N,09520.4431,W,2,08,1.02,12.3,M,-23.8,M,0000,0000*68
,
$GPGGA,011229.000,2943.3478,N,09520.4428,W,2,08,1.02,12.2,M,-23.8,M,0000,0000*6A
,
$GPRMC,011229.000,A,2943.3478,N,09520.4428,W,2.09,17.52,290316,,,D*45
,
$GPGGA,011230.000,2943.3483,N,09520.4425,W,2,08,1.02,12.0,M,-23.8,M,0000,0000*69
,
$GPGGA,011231.000,2943.3489,N,09520.4423,W,2,08,1.02,11.8,M,-23.8,M,0000,0000*6F
,
$GPGGA,011232.000,2943.3495,N,09520.4421,W,2,08,1.02,11.5,M,-23.8,M,0000,0000*6E
,
$GPGGA,011233.000,2943.3500,N,09520.4419,W,2,08,1.02,11.2,M,-23.8,M,0000,0000*6E
,
$GPGGA,011234.000,2943.3506,N,09520.4417,W,2,08,1.02,10.9,M,-23.8,M,0000,0000*6B
,
$GPRMC,011234.000,A,2943.3506,N,09520.4417,W,2.13,10.21,290316,,,D*45
,
$GPGGA,011235.000,2943.3511,N,09520.4416,W,2,08,1.02,10.5,M,-23.8,M,0000,0000*61
,
$GPGGA,011236.000,2943.3516,N,09520.4414,W,2,08,1.02,10.3,M,-23.8,M,0000,0000*61
,
$GPGGA,011237.000,2943.3521,N,09520.4411,W,2,08,1.02,10.3,M,-23.8,M,0000,0000*61
,
$GPGGA,011238.000,2943.3526,N,09520.4408,W,2,08,1.02,10.4,M,-23.8,M,0000,0000*66
,
$GPGGA,011239.000,2943.3532,N,09520.4406,W,2,08,1.02,10.2,M,-23.8,M,0000,0000*6A
,
$GPRMC,011239.000,A,2943.3532,N,09520.4406,W,2.09,10.69,290316,,,D*48
,
$GPGGA,011240.000,2943.3538,N,09520.4402,W,2,08,1.02,10.3,M,-23.8,M,0000,0000*6B
,
$GPGGA,011241.000,2943.3545,N,09520.4400,W,2,08,1.02,10.3,M,-23.8,M,0000,0000*62
,
$GPGGA,011242.000,2943.3551,N,09520.4401,W,2,08,1.02,10.2,M,-23.8,M,0000,0000*64
,
$GPGGA,011243.000,2943.3558,N,09520.4402,W,2,08,1.02,10.4,M,-23.8,M,0000,0000*69
,
$GPGGA,011244.000,2943.3562,N,09520.4405,W,2,08,1.02,10.6,M,-23.8,M,0000,0000*62
,
$GPRMC,011244.000,A,2943.3562,N,09520.4405,W,2.08,310.80,290316,,,D*71
,
$GPGGA,011245.000,2943.3566,N,09520.4411,W,2,08,1.02,10.7,M,-23.8,M,0000,0000*63
,
$GPGGA,011246.000,2943.3569,N,09520.4416,W,2,08,1.02,10.7,M,-23.8,M,0000,0000*68
,
$GPGGA,011247.000,2943.3569,N,09520.4418,W,2,08,1.02,10.6,M,-23.8,M,0000,0000*66
,
$GPGGA,011248.000,2943.3569,N,09520.4419,W,2,08,1.02,10.7,M,-23.8,M,0000,0000*69
,
$GPGGA,011249.000,2943.3571,N,09520.4421,W,2,08,1.02,10.7,M,-23.8,M,0000,0000*6A
,
$GPRMC,011249.000,A,2943.3571,N,09520.4421,W,0.81,314.34,290316,,,D*70
,
$GPGGA,011250.000,2943.3574,N,09520.4424,W,2,08,1.02,10.8,M,-23.8,M,0000,0000*6D
,
$GPGGA,011251.000,2943.3578,N,09520.4428,W,2,08,1.02,10.8,M,-23.8,M,0000,0000*6C
,
$GPGGA,011252.000,2943.3582,N,09520.4431,W,2,08,1.02,10.9,M,-23.8,M,0000,0000*63
,
$GPGGA,011253.000,2943.3586,N,09520.4433,W,2,08,1.02,11.1,M,-23.8,M,0000,0000*6D
,
$GPGGA,011254.000,2943.3592,N,09520.4434,W,2,08,1.02,11.2,M,-23.8,M,0000,0000*6B
,
$GPRMC,011254.000,A,2943.3592,N,09520.4434,W,1.94,351.31,290316,,,D*74
,
$GPGGA,011255.000,2943.3596,N,09520.4436,W,2,08,1.02,11.3,M,-23.8,M,0000,0000*6D
,
$GPGGA,011256.000,2943.3599,N,09520.4438,W,2,08,1.02,11.6,M,-23.8,M,0000,0000*6A
,
$GPGGA,011257.000,2943.3601,N,09520.4440,W,2,08,1.02,11.7,M,-23.8,M,0000,0000*67
,
$GPGGA,011258.000,2943.3602,N,09520.4445,W,2,08,1.02,11.8,M,-23.8,M,0000,0000*61
,
$GPRMC,011259.000,A,2943.3603,N,09520.4448,W,1.05,280.25,290316,,,D*79
,
$GPGGA,011300.000,2943.3603,N,09520.4450,W,2,08,1.02,11.8,M,-23.8,M,0000,0000*68
,
$GPGGA,011301.000,2943.3603,N,09520.4451,W,2,08,1.02,11.7,M,-23.8,M,0000,0000*67
,
$GPGGA,011302.000,2943.3603,N,09520.4452,W,2,08,1.02,11.7,M,-23.8,M,0000,0000*67
,
$GPGGA,011303.000,2943.3602,N,09520.4452,W,2,08,1.02,11.6,M,-23.8,M,0000,0000*66
,
$GPGGA,011304.000,2943.3602,N,09520.4453,W,2,08,1.02,11.6,M,-23.8,M,0000,0000*60
,
$GPRMC,011304.000,A,2943.3602,N,09520.4453,W,0.07,338.96,290316,,,D*72
,
$GPGGA,011305.000,2943.3603,N,09520.4453,W,2,08,1.02,11.6,M,-23.8,M,0000,0000*60
,
$GPGGA,011306.000,2943.3603,N,09520.4454,W,2,08,1.02,11.5,M,-23.8,M,0000,0000*67
,
$GPGGA,011307.000,2943.3603,N,09520.4455,W,2,08,1.02,11.5,M,-23.8,M,0000,0000*67
,
$GPGGA,011308.000,2943.3603,N,09520.4456,W,2,08,1.02,11.5,M,-23.8,M,0000,0000*6B
,
$GPGGA,011309.000,2943.3603,N,09520.4456,W,2,08,1.02,11.4,M,-23.8,M,0000,0000*6B
,
$GPRMC,011309.000,A,2943.3603,N,09520.4456,W,0.00,178.48,290316,,,D*79
,
$GPGGA,011310.000,2943.3603,N,09520.4457,W,2,08,1.02,11.3,M,-23.8,M,0000,0000*65
,
$GPGGA,011311.000,2943.3603,N,09520.4458,W,2,08,1.02,11.3,M,-23.8,M,0000,0000*6B
,
$GPGGA,011312.000,2943.3603,N,09520.4459,W,2,08,1.02,11.4,M,-23.8,M,0000,0000*6E
,
$GPGGA,011313.000,2943.3603,N,09520.4459,W,2,08,1.02,11.5,M,-23.8,M,0000,0000*6E
,
$GPGGA,011314.000,2943.3604,N,09520.4459,W,2,08,1.02,11.4,M,-23.8,M,0000,0000*6F
,
$GPRMC,011314.000,A,2943.3604,N,09520.4459,W,0.04,55.61,290316,,,D*4C
,
$GPGGA,011315.000,2943.3604,N,09520.4460,W,2,08,1.02,11.4,M,-23.8,M,0000,0000*64
,
$GPGGA,011316.000,2943.3604,N,09520.4460,W,2,08,1.02,11.4,M,-23.8,M,0000,0000*67
,
$GPGGA,011317.000,2943.3604,N,09520.4460,W,2,08,1.02,11.5,M,-23.8,M,0000,0000*67
,
$GPGGA,011318.000,2943.3604,N,09520.4461,W,2,08,1.02,11.5,M,-23.8,M,0000,0000*69
,
$GPGGA,011319.000,2943.3604,N,09520.4461,W,2,08,1.02,11.6,M,-23.8,M,0000,0000*6B
,
$GPRMC,011319.000,A,2943.3604,N,09520.4461,W,0.04,163.87,290316,,,D*76
,
$GPGGA,011320.000,2943.3605,N,09520.4461,W,2,08,1.02,11.6,M,-23.8,M,0000,0000*60
,
$GPGGA,011321.000,2943.3605,N,09520.4462,W,2,08,1.02,11.7,M,-23.8,M,0000,0000*63
,
$GPGGA,011322.000,2943.3606,N,09520.4463,W,2,08,1.02,11.8,M,-23.8,M,0000,0000*6D
,
$GPGGA,011323.000,2943.3606,N,09520.4463,W,2,08,1.02,11.8,M,-23.8,M,0000,0000*6C
,
$GPGGA,011324.000,2943.3607,N,09520.4464,W,2,08,1.02,11.8,M,-23.8,M,0000,0000*6D
,
$GPRMC,011324.000,A,2943.3607,N,09520.4464,W,0.06,18.14,290316,,,D*4B
,
$GPGGA,011325.000,2943.3608,N,09520.4464,W,2,08,1.02,11.9,M,-23.8,M,0000,0000*62
,
$GPGGA,011326.000,2943.3608,N,09520.4464,W,2,08,1.02,11.9,M,-23.8,M,0000,0000*61
,
$GPGGA,011327.000,2943.3608,N,09520.4464,W,2,08,1.02,11.9,M,-23.8,M,0000,0000*60
,
$GPGGA,011328.000,2943.3608,N,09520.4464,W,2,08,1.02,11.9,M,-23.8,M,0000,0000*6F
,
$GPGGA,011329.000,2943.3608,N,09520.4464,W,2,08,1.02,11.9,M,-23.8,M,0000,0000*6E
,
$GPRMC,011329.000,A,2943.3608,N,09520.4464,W,0.02,150.31,290316,,,D*77
,
